# Seed Data for Data Warehouse
# This file contains reference data that will be loaded into the warehouse

locations:
  - name: Boston
    latitude: 42.3601
    longitude: -71.0589
    country: US
    region: Massachusetts
    city: Boston

  - name: St Louis
    latitude: 38.6270
    longitude: -90.1994
    country: US
    region: Missouri
    city: St. Louis

  - name: New York
    latitude: 40.7128
    longitude: -74.0060
    country: US
    region: New York
    city: New York

  - name: Chicago
    latitude: 41.8781
    longitude: -87.6298
    country: US
    region: Illinois
    city: Chicago

  - name: Los Angeles
    latitude: 34.0522
    longitude: -118.2437
    country: US
    region: California
    city: Los Angeles

  - name: Miami
    latitude: 25.7617
    longitude: -80.1918
    country: US
    region: Florida
    city: Miami

  - name: Seattle
    latitude: 47.6062
    longitude: -122.3321
    country: US
    region: Washington
    city: Seattle

  - name: Denver
    latitude: 39.7392
    longitude: -104.9903
    country: US
    region: Colorado
    city: Denver

  - name: Phoenix
    latitude: 33.4484
    longitude: -112.0740
    country: US
    region: Arizona
    city: Phoenix

  - name: Atlanta
    latitude: 33.7490
    longitude: -84.3880
    country: US
    region: Georgia
    city: Atlanta

wikipedia_pages:
  - title: Boston
    language: en
    namespace: 0

  - title: St. Louis
    language: en
    namespace: 0

  - title: New England
    language: en
    namespace: 0

  - title: Cardinals
    language: en
    namespace: 0

